[
  {
    "name":"Gemma",
    "address":"2323 N Henderson Ave, Dallas, TX 75206",
    "phone":"214-370-9426",
    "website":"http:\/\/gemmadallas.com",
    "reservation_platform":"OpenTable",
    "reservation_url":"https:\/\/www.opentable.com\/r\/gemma-dallas",
    "price_band":"$$$",
    "cuisine_tags":"American, Contemporary",
    "neighborhood":"Knox\/Henderson",
    "lat":32.8123,
    "lng":-96.7891,
    "hours":"Mon\u2013Sun 5:00pm\u201310:00pm",
    "avg_check_estimate":55,
    "rating":4.5,
    "review_count":682,
    "image_url":"https:\/\/s3.yelpcdn.com\/photo\/gemma.jpg",
    "menu_url":"https:\/\/gemmadallas.com\/menu",
    "source_platform":"OpenTable,Google,Yelp"
  },
  {
    "name":"Uchi Dallas",
    "address":"2817 Maple Ave, Dallas, TX 75201",
    "phone":"214-855-5454",
    "website":"https:\/\/uchidallas.com",
    "reservation_platform":"Resy",
    "reservation_url":"https:\/\/resy.com\/cities\/dal\/uchi-dallas",
    "price_band":"$$$$",
    "cuisine_tags":"Japanese, Sushi",
    "neighborhood":"Uptown",
    "lat":32.7965,
    "lng":-96.8102,
    "hours":"Mon\u2013Sun 4:00pm\u201310:00pm",
    "avg_check_estimate":95,
    "rating":4.7,
    "review_count":1123,
    "image_url":"https:\/\/s3.yelpcdn.com\/photo\/uchi.jpg",
    "menu_url":"https:\/\/uchidallas.com\/menu",
    "source_platform":"Resy,Google,Yelp"
  },
  {
    "name":"Town Hearth",
    "address":"1617 Market Center Blvd, Dallas, TX 75207",
    "phone":"214-761-1617",
    "website":"http:\/\/townhearthdallas.com",
    "reservation_platform":"OpenTable",
    "reservation_url":"https:\/\/www.opentable.com\/r\/town-hearth-dallas",
    "price_band":"$$$$",
    "cuisine_tags":"Steakhouse, American",
    "neighborhood":"Design District",
    "lat":32.8001,
    "lng":-96.8194,
    "hours":"Tue\u2013Sat 5:00pm\u201311:00pm",
    "avg_check_estimate":120,
    "rating":4.6,
    "review_count":2140,
    "image_url":"https:\/\/s3.yelpcdn.com\/photo\/townhearth.jpg",
    "menu_url":"http:\/\/townhearthdallas.com\/menu",
    "source_platform":"OpenTable,Google,Yelp"
  },
  {
    "name":"Monarch",
    "address":"1401 Elm St 49th Floor, Dallas, TX 75202",
    "phone":"214-945-2222",
    "website":"https:\/\/monarchrestaurants.com\/dallas",
    "reservation_platform":"Resy",
    "reservation_url":"https:\/\/resy.com\/cities\/dal\/monarch",
    "price_band":"$$$$",
    "cuisine_tags":"Italian, Fine Dining",
    "neighborhood":"Downtown",
    "lat":32.7791,
    "lng":-96.7986,
    "hours":"Mon\u2013Sun 5:00pm\u201310:00pm",
    "avg_check_estimate":110,
    "rating":4.5,
    "review_count":960,
    "image_url":"https:\/\/s3.yelpcdn.com\/photo\/monarch.jpg",
    "menu_url":"https:\/\/monarchrestaurants.com\/menu",
    "source_platform":"Resy,Google,Yelp"
  },
  {
    "name":"Pappas Bros. Steakhouse",
    "address":"10477 Lombardy Ln, Dallas, TX 75220",
    "phone":"214-366-2000",
    "website":"https:\/\/pappasbros.com",
    "reservation_platform":"OpenTable",
    "reservation_url":"https:\/\/www.opentable.com\/r\/pappas-bros-steakhouse-dallas",
    "price_band":"$$$$",
    "cuisine_tags":"Steakhouse, Wine Bar",
    "neighborhood":"Northwest Dallas",
    "lat":32.8654,
    "lng":-96.8836,
    "hours":"Mon\u2013Sat 5:00pm\u201310:00pm",
    "avg_check_estimate":130,
    "rating":4.8,
    "review_count":1432,
    "image_url":"https:\/\/s3.yelpcdn.com\/photo\/pappasbros.jpg",
    "menu_url":"https:\/\/pappasbros.com\/menu",
    "source_platform":"OpenTable,Google,Yelp"
  },
  {
    "name":"Al Biernat's",
    "address":"4217 Oak Lawn Ave, Dallas, TX 75219",
    "phone":"214-219-2201",
    "website":"https:\/\/albiernats.com",
    "reservation_platform":"OpenTable",
    "reservation_url":"https:\/\/www.opentable.com\/r\/al-biernats-dallas",
    "price_band":"$$$$",
    "cuisine_tags":"Steakhouse, Seafood",
    "neighborhood":"Oak Lawn",
    "lat":32.8176,
    "lng":-96.8044,
    "hours":"Mon\u2013Sun 5:00pm\u201310:00pm",
    "avg_check_estimate":115,
    "rating":4.7,
    "review_count":1589,
    "image_url":"https:\/\/s3.yelpcdn.com\/photo\/albiernats.jpg",
    "menu_url":"https:\/\/albiernats.com\/menu",
    "source_platform":"OpenTable,Google,Yelp"
  },
  {
    "name":"Nick & Sam's",
    "address":"3008 Maple Ave, Dallas, TX 75201",
    "phone":"214-871-7444",
    "website":"http:\/\/nick-sams.com",
    "reservation_platform":"OpenTable",
    "reservation_url":"https:\/\/www.opentable.com\/r\/nick-and-sams-dallas",
    "price_band":"$$$$",
    "cuisine_tags":"Steakhouse, American",
    "neighborhood":"Uptown",
    "lat":32.8003,
    "lng":-96.8101,
    "hours":"Mon\u2013Sun 5:00pm\u201311:00pm",
    "avg_check_estimate":125,
    "rating":4.6,
    "review_count":1876,
    "image_url":"https:\/\/s3.yelpcdn.com\/photo\/nicksams.jpg",
    "menu_url":"http:\/\/nick-sams.com\/menu",
    "source_platform":"OpenTable,Google,Yelp"
  },
  {
    "name":"Tei-An",
    "address":"1722 Routh St Ste 110, Dallas, TX 75201",
    "phone":"214-220-2828",
    "website":"http:\/\/tei-an.com",
    "reservation_platform":"Tock",
    "reservation_url":"https:\/\/www.exploretock.com\/teian",
    "price_band":"$$$",
    "cuisine_tags":"Japanese, Soba",
    "neighborhood":"Arts District",
    "lat":32.7868,
    "lng":-96.8005,
    "hours":"Tue\u2013Sun 5:30pm\u201310:00pm",
    "avg_check_estimate":75,
    "rating":4.7,
    "review_count":634,
    "image_url":"https:\/\/s3.yelpcdn.com\/photo\/teian.jpg",
    "menu_url":"http:\/\/tei-an.com\/menu",
    "source_platform":"Tock,Google,Yelp"
  },
  {
    "name":"Fearing's Restaurant",
    "address":"2121 McKinney Ave, Dallas, TX 75201",
    "phone":"214-922-4848",
    "website":"https:\/\/fearingrestaurant.com",
    "reservation_platform":"OpenTable",
    "reservation_url":"https:\/\/www.opentable.com\/r\/fearings-restaurant-dallas",
    "price_band":"$$$$",
    "cuisine_tags":"Southwestern, Fine Dining",
    "neighborhood":"Uptown",
    "lat":32.7947,
    "lng":-96.8039,
    "hours":"Mon\u2013Sun 5:00pm\u201310:00pm",
    "avg_check_estimate":105,
    "rating":4.6,
    "review_count":978,
    "image_url":"https:\/\/s3.yelpcdn.com\/photo\/fearings.jpg",
    "menu_url":"https:\/\/fearingrestaurant.com\/menu",
    "source_platform":"OpenTable,Google,Yelp"
  },
  {
    "name":"The Capital Grille",
    "address":"500 Crescent Ct, Dallas, TX 75201",
    "phone":"214-303-0500",
    "website":"https:\/\/thecapitalgrille.com",
    "reservation_platform":"OpenTable",
    "reservation_url":"https:\/\/www.opentable.com\/r\/the-capital-grille-dallas",
    "price_band":"$$$$",
    "cuisine_tags":"Steakhouse, American",
    "neighborhood":"Uptown",
    "lat":32.7934,
    "lng":-96.8028,
    "hours":"Mon\u2013Sun 5:00pm\u201310:00pm",
    "avg_check_estimate":120,
    "rating":4.7,
    "review_count":1342,
    "image_url":"https:\/\/s3.yelpcdn.com\/photo\/capitalgrille.jpg",
    "menu_url":"https:\/\/thecapitalgrille.com\/menu",
    "source_platform":"OpenTable,Google,Yelp"
  }
]